cidade,pais,lat,long
Curitiba,Brasil,-25.4284,-49.2733
Foz do Iguaçu,Brasil,-25.5163,-54.5854
Montevidéu,Uruguai,-34.9011,-56.1645
Punta del Este,Uruguai,-34.9156,-54.9581
Rivera,Uruguai,-30.9053,-55.5508
Buenos Aires,Argentina,-34.6037,-58.3816
Rosário,Argentina,-32.9468,-60.6393
Córdoba,Argentina,-31.4201,-64.1888
Assunção,Paraguai,-25.2637,-57.5759
Santa Cruz de la Sierra,Bolívia,-17.7833,-63.1821